{
  "waterfalls": [
    {
      "title": "Fern Falls",
      "beauty": 5,
      "elevation": "",
      "hDistance": 5.8,
      "hDifficulty": 4,
      "hDiffUpdate": "",
      "photo": 6,
      "compass": "",
      "canopy": "Partial",
      "degreeLat": 41,
      "minutesLat": 46.139,
      "degreeLng": 124,
      "minutesLng": 6.602,
      "lat": 41.76898,
      "lng": -124.11003,
      "pageNumber": 25,
      "notes": ""
    },
    {
      "title": "Smith River Falls",
      "beauty": 6,
      "elevation": "",
      "hDistance": 1,
      "hDifficulty": 2,
      "hDiffUpdate": "",
      "photo": 6,
      "compass": "",
      "canopy": "Partial",
      "degreeLat": "",
      "minutesLat": "",
      "degreeLng": "",
      "minutesLng": "",
      "lat": 41.89424,
      "lng": 123.78229,
      "pageNumber": 27,
      "notes": ""
    },
    {
      "title": "Fern Canyon",
      "beauty": 8,
      "elevation": "",
      "hDistance": 1,
      "hDifficulty": 2,
      "hDiffUpdate": "",
      "photo": 6,
      "compass": "",
      "canopy": "Partial",
      "degreeLat": 41,
      "minutesLat": 24.039,
      "degreeLng": 124,
      "minutesLng": 3.949,
      "lat": 41.40065,
      "lng": -124.06582,
      "pageNumber": 30,
      "notes": ""
    },
    {
      "title": "Gold Bluff Falls",
      "beauty": 8,
      "elevation": "",
      "hDistance": 3.2,
      "hDifficulty": 2,
      "hDiffUpdate": "",
      "photo": 8,
      "compass": "",
      "canopy": "Partial",
      "degreeLat": 41,
      "minutesLat": 24.039,
      "degreeLng": 124,
      "minutesLng": 3.949,
      "lat": 41.40065,
      "lng": -124.06582,
      "pageNumber": 34,
      "notes": ""
    },
    {
      "title": "Trillium Falls",
      "beauty": 6,
      "elevation": "",
      "hDistance": 2.7,
      "hDifficulty": 2,
      "hDiffUpdate": "",
      "photo": 6,
      "compass": "",
      "canopy": "Partial",
      "degreeLat": 41,
      "minutesLat": 19.387,
      "degreeLng": 124,
      "minutesLng": 2.732,
      "lat": 41.32312,
      "lng": -124.04553,
      "pageNumber": 36,
      "notes": ""
    },
    {
      "title": "Dora Falls",
      "beauty": 6,
      "elevation": "",
      "hDistance": 0.2,
      "hDifficulty": 2,
      "hDiffUpdate": "",
      "photo": 6,
      "compass": "",
      "canopy": "Closed",
      "degreeLat": 39,
      "minutesLat": 53.904,
      "degreeLng": 123,
      "minutesLng": 45.066,
      "lat": 39.8984,
      "lng": -123.7511,
      "pageNumber": 40,
      "notes": ""
    },
    {
      "title": "McCloud Falls",
      "beauty": 8,
      "elevation": "",
      "hDistance": 4.2,
      "hDifficulty": 4,
      "hDiffUpdate": "",
      "photo": 8,
      "compass": "",
      "canopy": "Partial",
      "degreeLat": 41,
      "minutesLat": 14.422,
      "degreeLng": 122,
      "minutesLng": 1.49,
      "lat": 41.24037,
      "lng": -122.02483,
      "pageNumber": 45,
      "notes": ""
    },
    {
      "title": "Faery Falls",
      "beauty": 7,
      "elevation": "",
      "hDistance": 2,
      "hDifficulty": 3,
      "hDiffUpdate": "",
      "photo": 7,
      "compass": "",
      "canopy": "Partial",
      "degreeLat": 41,
      "minutesLat": 15.949,
      "degreeLng": 122,
      "minutesLng": 19.453,
      "lat": 41.26582,
      "lng": -122.32422,
      "pageNumber": 48,
      "notes": ""
    }
  ]
}
