{
  "waterfalls":[
    {
      "title": "Campbell Falls",
      "beauty": 8,
      "elevation": "",
      "hDistance": "0.4 miles",
      "hDifficulty": 4,
      "hDiffUpdate": "",
      "photo": 8,
      "compass": "",
      "canopy": "",
      "degreeLat": 42,
      "minuteLat": 2.71,
      "degreeLng": 73,
      "minuteLng": 13.912,
      "lat": 42.04516667,
      "lng": -73.23186667,
      "pageNumber": 42,
      "notes": ""
    },
    {
      "title": "Race Brook Falls",
      "beauty": 10,
      "elevation": "",
      "hDistance": "2.8 miles",
      "hDifficulty": 6,
      "hDiffUpdate": "",
      "photo": 10,
      "compass": "",
      "canopy": "",
      "degreeLat": 42,
      "minuteLat": 5.371,
      "degreeLng": 73,
      "minuteLng": 24.675,
      "lat": 42.08951667,
      "lng": -73.41125,
      "pageNumber": 45,
      "notes": ""
    },
    {
      "title": "Bash Bish Falls",
      "beauty": 10,
      "elevation": "",
      "hDistance": "0.8 miles",
      "hDifficulty": 7,
      "hDiffUpdate": "",
      "photo": 10,
      "compass": "",
      "canopy": "",
      "degreeLat": 42,
      "minuteLat": 6.907,
      "degreeLng": 73,
      "minuteLng": 29.506,
      "lat": 42.11511667,
      "lng": -73.49176667,
      "pageNumber": 49,
      "notes": ""
    },
    {
      "title": "Wahconah Falls",
      "beauty": 8,
      "elevation": "",
      "hDistance": "0.4 miles",
      "hDifficulty": 2,
      "hDiffUpdate": "",
      "photo": 8,
      "compass": "",
      "canopy": "",
      "degreeLat": 42,
      "minuteLat": 29.359,
      "degreeLng": 73,
      "minuteLng": 6.898,
      "lat": 42.48931667,
      "lng": -73.11496667,
      "pageNumber": 52,
      "notes": ""
    },
    {
      "title": "Windsor Jams",
      "beauty": 4,
      "elevation": "",
      "hDistance": "0.6 miles",
      "hDifficulty": 3,
      "hDiffUpdate": "",
      "photo": 4,
      "compass": "",
      "canopy": "",
      "degreeLat": 42,
      "minuteLat": 31.391,
      "degreeLng": 72,
      "minuteLng": 59.547,
      "lat": 42.52318333,
      "lng": -72.99245,
      "pageNumber": 55,
      "notes": ""
    },
    {
      "title": "March Cataract Falls",
      "beauty": 6,
      "elevation": "",
      "hDistance": "2.2 miles",
      "hDifficulty": 5,
      "hDiffUpdate": "",
      "photo": 6,
      "compass": "",
      "canopy": "",
      "degreeLat": 42,
      "minuteLat": 37.521,
      "degreeLng": 73,
      "minuteLng": 11.388,
      "lat": 42.62535,
      "lng": -73.1898,
      "pageNumber": 58,
      "notes": ""
    },
    {
      "title": "Money Brook Falls",
      "beauty": 6,
      "elevation": "",
      "hDistance": "1.2 miles",
      "hDifficulty": 5,
      "hDiffUpdate": "",
      "photo": 6,
      "compass": "",
      "canopy": "",
      "degreeLat": 42,
      "minuteLat": 39.864,
      "degreeLng": 73,
      "minuteLng": 9.961,
      "lat": 42.6644,
      "lng": -73.16601667,
      "pageNumber": 62,
      "notes": ""
    },
    {
      "title": "Twin Cascade",
      "beauty": 8,
      "elevation": "",
      "hDistance": "1 miles",
      "hDifficulty": 9,
      "hDiffUpdate": "",
      "photo": 8,
      "compass": "",
      "canopy": "",
      "degreeLat": 42,
      "minuteLat": 40.473,
      "degreeLng": 72,
      "minuteLng": 59.778,
      "lat": 42.67455,
      "lng": -72.9963,
      "pageNumber": 64,
      "notes": ""
    },
    {
      "title": "Tannery and Parker Brook Falls",
      "beauty": 8,
      "elevation": "",
      "hDistance": "0.7 miles",
      "hDifficulty": 2,
      "hDiffUpdate": "",
      "photo": 8,
      "compass": "",
      "canopy": "",
      "degreeLat": 42,
      "minuteLat": 37.328,
      "degreeLng": 73,
      "minuteLng": 0.304,
      "lat": 42.62213333,
      "lng": -73.00506667,
      "pageNumber": 67,
      "notes": ""
    },
    {
      "title": "Doane's Falls",
      "beauty": 8,
      "elevation": "",
      "hDistance": "0.6 miles",
      "hDifficulty": 2,
      "hDiffUpdate": "",
      "photo": 8,
      "compass": "",
      "canopy": "",
      "degreeLat": 42,
      "minuteLat": 39,
      "degreeLng": 72,
      "minuteLng": 12.082,
      "lat": 42.65,
      "lng": -72.20136667,
      "pageNumber": 70,
      "notes": ""
    },
    {
      "title": "Spirit Falls",
      "beauty": 4,
      "elevation": "",
      "hDistance": "1.6 miles",
      "hDifficulty": 5,
      "hDiffUpdate": "",
      "photo": 4,
      "compass": "",
      "canopy": "",
      "degreeLat": 42,
      "minuteLat": 40.577,
      "degreeLng": 72,
      "minuteLng": 11.923,
      "lat": 42.67628333,
      "lng": -72.19871667,
      "pageNumber": 73,
      "notes": ""
    },
    {
      "title": "Royalston Falls",
      "beauty": 6,
      "elevation": "",
      "hDistance": "0.8 miles",
      "hDifficulty": 5,
      "hDiffUpdate": "",
      "photo": 6,
      "compass": "",
      "canopy": "",
      "degreeLat": 42,
      "minuteLat": 42.948,
      "degreeLng": 72,
      "minuteLng": 14.461,
      "lat": 42.7158,
      "lng": -72.24101667,
      "pageNumber": 75,
      "notes": ""
    }
  ]
}